{
	"data": [{
		"name": "南岳杏湾渔港    ",
		"lon": "121.16821289062501",
		"lat": "41.008920735004885",
    "status":1
	}, {
		"name": "南麂渔港      ",
		"lon": "121.28906250000001",
		"lat": "40.72228267283148",
    "status":0

	}, {
		"name": "灵昆渔港      ",
		"lon": "121.89331054687501",
		"lat": "40.81380923056961",
    "status":0
	}, {
		"name": "蓝田渔港      ",
		"lon": "120.48706054687501",
		"lat": "40.57224011776902",
    "status":0
	}, {
		"name": "西湾渔港      ",
		"lon": "120.27282714843751",
		"lat": "39.939224840791965",
    "status":1

	}, {
		"name": "大渔渔港      ",
		"lon": "123.95324707031251",
		"lat": "39.59722324495565",
    "status":2
	}, {
		"name": "炎亭渔港      ",
		"lon": "122.74475097656251",
		"lat": "39.73253798438173",
    "status":0

	}, {
		"name": "东沙渔港      ",
		"lon": "121.33850097656251",
		"lat": "39.40648882684979",
    "status":0

	}]
}